{{
    "Name": "Aberdeen",
    "Street Address": "E Perry St & S Dewey St.",
    "City": "Aberdeen",
    "State": "WA",
    "Zip": "98520",
    "Full Address": "E Perry St & S Dewey St. Aberdeen, WA 98520",
    "Latitude": 46.9673768,
    "Longitude": -123.7906958,
    "Description": null,
    "Skatepark Tags": null,
    "Bowl?": null,
    "Rails?": null,
    "Ledges?": null,
    "Covered from Rain?": null,
    "Night Lights?": null,
    "Difficulty Level": null,
    "Concrete smoothness / CRUST LEVEL": null,
    "Public Bathroom?": null,
    "Dog Friendly?": null,
    "Pump Track?": null
  },
  {
    "Name": "Anacortes",
    "Street Address": "R Ave & 23rd St.",
    "City": "Anacortes",
    "State": "WA",
    "Zip": "98221",
    "Full Address": "R Ave & 23rd St. Anacortes, WA 98221",
    "Latitude": 48.5036754,
    "Longitude": -122.6095971,
    "Description": null,
    "Skatepark Tags": null,
    "Bowl?": null,
    "Rails?": null,
    "Ledges?": null,
    "Covered from Rain?": null,
    "Night Lights?": null,
    "Difficulty Level": null,
    "Concrete smoothness / CRUST LEVEL": null,
    "Public Bathroom?": null,
    "Dog Friendly?": null,
    "Pump Track?": null
  },
  {
    "Name": "Arlington",
    "Street Address": "18501 59th Ave NE",
    "City": "Arlington",
    "State": "WA",
    "Zip": "98223",
    "Full Address": "18501 59th Ave NE Arlington, WA 98223",
    "Latitude": 48.1644485,
    "Longitude": -122.1502036,
    "Description": null,
    "Skatepark Tags": null,
    "Bowl?": null,
    "Rails?": null,
    "Ledges?": null,
    "Covered from Rain?": null,
    "Night Lights?": null,
    "Difficulty Level": null,
    "Concrete smoothness / CRUST LEVEL": null,
    "Public Bathroom?": null,
    "Dog Friendly?": null,
    "Pump Track?": null
  }
}